[
  {
    "id": "AKL",
    "iata": "AKL",
    "icao": "NZAA",
    "name": "Auckland",
    "city": "Auckland",
    "country": "Nova Zelândia",
    "lat": -37.0082,
    "lon": 174.785,
    "region": "oceania",
    "tier": "large",
    "traffic": 6,
    "hub": true
  },
  {
    "id": "HNL",
    "iata": "HNL",
    "icao": "PHNL",
    "name": "Honolulu",
    "city": "Honolulu",
    "country": "Estados Unidos",
    "lat": 21.3187,
    "lon": -157.9225,
    "region": "oceania",
    "tier": "medium",
    "traffic": 5,
    "hub": true
  },
  {
    "id": "SFO",
    "iata": "SFO",
    "icao": "KSFO",
    "name": "San Francisco International",
    "city": "San Francisco",
    "country": "Estados Unidos",
    "lat": 37.6213,
    "lon": -122.379,
    "region": "north-america",
    "tier": "mega",
    "traffic": 8,
    "hub": true
  },
  {
    "id": "ICN",
    "iata": "ICN",
    "icao": "RKSI",
    "name": "Incheon",
    "city": "Seul",
    "country": "Coreia do Sul",
    "lat": 37.4602,
    "lon": 126.4407,
    "region": "asia",
    "tier": "mega",
    "traffic": 8,
    "hub": true
  },
  {
    "id": "NRT",
    "iata": "NRT",
    "icao": "RJAA",
    "name": "Narita",
    "city": "Tóquio",
    "country": "Japão",
    "lat": 35.7719,
    "lon": 140.3929,
    "region": "asia",
    "tier": "large",
    "traffic": 7,
    "hub": true
  },
  {
    "id": "PPT",
    "iata": "PPT",
    "icao": "NTAA",
    "name": "Faa'a International",
    "city": "Papeete",
    "country": "Polinésia Francesa",
    "lat": -17.5537,
    "lon": -149.6067,
    "region": "oceania",
    "tier": "medium",
    "traffic": 3,
    "hub": true
  }
]