[
  {
    "id": "BOS",
    "iata": "BOS",
    "icao": "KBOS",
    "name": "Boston Logan",
    "city": "Boston",
    "country": "Estados Unidos",
    "lat": 42.3656,
    "lon": -71.0096,
    "region": "north-america",
    "tier": "large",
    "traffic": 7,
    "hub": true
  },
  {
    "id": "YYZ",
    "iata": "YYZ",
    "icao": "CYYZ",
    "name": "Toronto Pearson",
    "city": "Toronto",
    "country": "Canadá",
    "lat": 43.6777,
    "lon": -79.6248,
    "region": "north-america",
    "tier": "mega",
    "traffic": 8,
    "hub": true
  },
  {
    "id": "LIS",
    "iata": "LIS",
    "icao": "LPPT",
    "name": "Humberto Delgado",
    "city": "Lisboa",
    "country": "Portugal",
    "lat": 38.7742,
    "lon": -9.1342,
    "region": "europe",
    "tier": "large",
    "traffic": 7,
    "hub": true
  },
  {
    "id": "KEF",
    "iata": "KEF",
    "icao": "BIKF",
    "name": "Keflavík",
    "city": "Reykjavík",
    "country": "Islândia",
    "lat": 63.985,
    "lon": -22.6056,
    "region": "europe",
    "tier": "medium",
    "traffic": 5,
    "hub": true
  },
  {
    "id": "DUB",
    "iata": "DUB",
    "icao": "EIDW",
    "name": "Dublin",
    "city": "Dublin",
    "country": "Irlanda",
    "lat": 53.4213,
    "lon": -6.2701,
    "region": "europe",
    "tier": "large",
    "traffic": 6,
    "hub": true
  },
  {
    "id": "AMS",
    "iata": "AMS",
    "icao": "EHAM",
    "name": "Amsterdam Schiphol",
    "city": "Amsterdã",
    "country": "Países Baixos",
    "lat": 52.3105,
    "lon": 4.7683,
    "region": "europe",
    "tier": "mega",
    "traffic": 9,
    "hub": true
  }
]